[{"place_id":235563516,"licence":"Data © OpenStreetMap contributors, ODbL 1.0. https://osm.org/copyright","osm_type":"relation","osm_id":192779,"boundingbox":["4.1621205","10.740197","-8.6014675","-2.493031"],"lat":"7.9897371","lon":"-5.5679458","display_name":"Côte d’Ivoire","class":"boundary","type":"administrative","importance":0.903852049188393,"icon":"https://nominatim.openstreetmap.org/images/mapicons/poi_boundary_administrative.p.20.png"},{"place_id":67048273,"licence":"Data © OpenStreetMap contributors, ODbL 1.0. https://osm.org/copyright","osm_type":"node","osm_id":5685114640,"boundingbox":["8.972","8.9721","17.6395333","17.6396333"],"lat":"8.97205","lon":"17.6395833","display_name":"Côte D'Ivoire, Massa/Bessada, Mandoul Oriental ماندول الشرقية, Mandoul ماندول, Tchad / تشاد","class":"place","type":"neighbourhood","importance":0.39999999999999997},{"place_id":10510141,"licence":"Data © OpenStreetMap contributors, ODbL 1.0. https://osm.org/copyright","osm_type":"node","osm_id":983403520,"boundingbox":["49.6366536","49.6367536","6.1410036","6.1411036"],"lat":"49.6367036","lon":"6.1410536","display_name":"Côte d’Ivoire, Rue Antoine-François van der Meulen, Dommeldange, Luxembourg, Canton Luxembourg, 2152, Luxembourg","class":"amenity","type":"embassy","importance":0.201},{"place_id":75269927,"licence":"Data © OpenStreetMap contributors, ODbL 1.0. https://osm.org/copyright","osm_type":"node","osm_id":6749839978,"boundingbox":["12.6267255","12.6268255","-8.0349975","-8.0348975"],"lat":"12.6267755","lon":"-8.0349475","display_name":"Côte d'Ivoire, Rue 331, ACI 2000, Bamako, E199 BAMAKO MALI, Mali","class":"historic","type":"memorial","importance":0.201,"icon":"https://nominatim.openstreetmap.org/images/mapicons/tourist_monument.p.20.png"},{"place_id":62894716,"licence":"Data © OpenStreetMap contributors, ODbL 1.0. https://osm.org/copyright","osm_type":"node","osm_id":5364451823,"boundingbox":["5.9436119","5.9437119","-4.1939261","-4.1938261"],"lat":"5.9436619","lon":"-4.1938761","display_name":"Côte d'Ivoire, A2, Agboville, Agnéby-Tiassa, Lagunes, Côte d'Ivoire","class":"amenity","type":"restaurant","importance":0.201,"icon":"https://nominatim.openstreetmap.org/images/mapicons/food_restaurant.p.20.png"},{"place_id":219024621,"licence":"Data © OpenStreetMap contributors, ODbL 1.0. https://osm.org/copyright","osm_type":"way","osm_id":668462744,"boundingbox":["18.0950192","18.0968726","-16.0008209","-15.9996957"],"lat":"18.0956252","lon":"-16.0000297","display_name":"ساحل العاج, نواكشوط, لاس بالماس, نواكشوط, 5371, موريتانيا","class":"highway","type":"residential","importance":0.09999999999999998},{"place_id":99404118,"licence":"Data © OpenStreetMap contributors, ODbL 1.0. https://osm.org/copyright","osm_type":"way","osm_id":52434908,"boundingbox":["55.7382808","55.7385578","37.5993471","37.5997837"],"lat":"55.73843015","lon":"37.59952840632296","display_name":"Посольство Кот Д-Ивуара, 9 с1, Коробейников переулок, 33, Бабий городок, Москва, Центральный административный округ, Москва, Центральный федеральный округ, 119034, Россия","class":"office","type":"diplomatic","importance":0.001}]