[{"place_id":234834563,"licence":"Data © OpenStreetMap contributors, ODbL 1.0. https://osm.org/copyright","osm_type":"relation","osm_id":198590,"boundingbox":["40.86164","46.3029847","121.6357146","131.311365"],"lat":"42.9995032","lon":"125.9816054","display_name":"吉林省, China 中国","class":"boundary","type":"administrative","importance":0.7367408641903683,"icon":"https://nominatim.openstreetmap.org/images/mapicons/poi_boundary_administrative.p.20.png"},{"place_id":642389,"licence":"Data © OpenStreetMap contributors, ODbL 1.0. https://osm.org/copyright","osm_type":"node","osm_id":244080892,"boundingbox":["43.6817717","44.0017717","126.4005066","126.7205066"],"lat":"43.8417717","lon":"126.5605066","display_name":"吉林市, 昌邑区, 吉林市, 吉林省, 132011, China 中国","class":"place","type":"city","importance":0.6069574919488508,"icon":"https://nominatim.openstreetmap.org/images/mapicons/poi_place_city.p.20.png"},{"place_id":235590974,"licence":"Data © OpenStreetMap contributors, ODbL 1.0. https://osm.org/copyright","osm_type":"relation","osm_id":2764055,"boundingbox":["42.5611494","44.6460834","125.6398669","127.9189034"],"lat":"43.686111","lon":"126.905556","display_name":"吉林市, 吉林省, China 中国","class":"boundary","type":"administrative","importance":0.6069574919488508,"icon":"https://nominatim.openstreetmap.org/images/mapicons/poi_boundary_administrative.p.20.png"},{"place_id":38775171,"licence":"Data © OpenStreetMap contributors, ODbL 1.0. https://osm.org/copyright","osm_type":"node","osm_id":2959840327,"boundingbox":["23.563333","23.603333","107.413333","107.453333"],"lat":"23.583333","lon":"107.433333","display_name":"Jilin, 平果市 / Pingguo, 百色市, 广西壮族自治区, China 中国","class":"place","type":"village","importance":0.48500000000000004,"icon":"https://nominatim.openstreetmap.org/images/mapicons/poi_place_village.p.20.png"},{"place_id":25505504,"licence":"Data © OpenStreetMap contributors, ODbL 1.0. https://osm.org/copyright","osm_type":"node","osm_id":2518360271,"boundingbox":["26.361473","26.441473","118.728685","118.808685"],"lat":"26.401473","lon":"118.768685","display_name":"桔林乡, 闽清县, 福州市, 福建省, China 中国","class":"place","type":"town","importance":0.4,"icon":"https://nominatim.openstreetmap.org/images/mapicons/poi_place_town.p.20.png"},{"place_id":41783377,"licence":"Data © OpenStreetMap contributors, ODbL 1.0. https://osm.org/copyright","osm_type":"node","osm_id":3116353281,"boundingbox":["23.393855","23.433855","114.15281","114.19281"],"lat":"23.413855","lon":"114.17281","display_name":"结林, 博罗县 (Boluo), 惠州市, 广东省, China 中国","class":"place","type":"village","importance":0.375,"icon":"https://nominatim.openstreetmap.org/images/mapicons/poi_place_village.p.20.png"},{"place_id":70298683,"licence":"Data © OpenStreetMap contributors, ODbL 1.0. https://osm.org/copyright","osm_type":"node","osm_id":6049112502,"boundingbox":["35.659842","35.699842","105.581599","105.621599"],"lat":"35.679842","lon":"105.601599","display_name":"吉林, 静宁县, 平凉市, 甘肃省, China 中国","class":"place","type":"village","importance":0.375,"icon":"https://nominatim.openstreetmap.org/images/mapicons/poi_place_village.p.20.png"},{"place_id":49550877,"licence":"Data © OpenStreetMap contributors, ODbL 1.0. https://osm.org/copyright","osm_type":"node","osm_id":3908558089,"boundingbox":["24.0756","24.1156","108.772","108.812"],"lat":"24.0956","lon":"108.792","display_name":"吉林, 忻城县 / Xincheng, 来宾市 / Laibin, 广西壮族自治区, China 中国","class":"place","type":"village","importance":0.375,"icon":"https://nominatim.openstreetmap.org/images/mapicons/poi_place_village.p.20.png"},{"place_id":49967076,"licence":"Data © OpenStreetMap contributors, ODbL 1.0. https://osm.org/copyright","osm_type":"node","osm_id":3907878519,"boundingbox":["23.7466","23.7866","109.065","109.105"],"lat":"23.7666","lon":"109.085","display_name":"吉林, 兴宾区 Xingbin, 来宾市 / Laibin, 广西壮族自治区, China 中国","class":"place","type":"village","importance":0.375,"icon":"https://nominatim.openstreetmap.org/images/mapicons/poi_place_village.p.20.png"},{"place_id":236562181,"licence":"Data © OpenStreetMap contributors, ODbL 1.0. https://osm.org/copyright","osm_type":"relation","osm_id":9520923,"boundingbox":["43.8621295","43.8872228","125.3453887","125.3633997"],"lat":"43.8782346","lon":"125.3539619","display_name":"吉林街道, 二道区, 长春市, 吉林省, 130000, China 中国","class":"boundary","type":"administrative","importance":0.3116448708268294,"icon":"https://nominatim.openstreetmap.org/images/mapicons/poi_boundary_administrative.p.20.png"}]