[{"place_id":235843794,"licence":"Data © OpenStreetMap contributors, ODbL 1.0. https://osm.org/copyright","osm_type":"relation","osm_id":3334509,"boundingbox":["29.3643812","29.4057521","-98.642262","-98.5746832"],"lat":"29.3862862","lon":"-98.60090009131218","display_name":"Lackland Air Force Base, Bexar County, Texas, United States of America","class":"landuse","type":"military","importance":0.5528317094655371},{"place_id":222410691,"licence":"Data © OpenStreetMap contributors, ODbL 1.0. https://osm.org/copyright","osm_type":"way","osm_id":684069532,"boundingbox":["31.8998058","31.9086484","-94.698953","-94.690543"],"lat":"31.9051223","lon":"-94.6937376","display_name":"Lackland Branch, Rusk County, Texas, 75681, United States of America","class":"waterway","type":"stream","importance":0.525},{"place_id":169403437,"licence":"Data © OpenStreetMap contributors, ODbL 1.0. https://osm.org/copyright","osm_type":"way","osm_id":360676169,"boundingbox":["29.3614189","29.4063108","-98.6002498","-98.5646795"],"lat":"29.3838847","lon":"-98.58618542585432","display_name":"Kelly Field Annex, Hof Street, Bexar County, Texas, 78242, United States of America","class":"aeroway","type":"aerodrome","importance":0.32273448234397095,"icon":"https://nominatim.openstreetmap.org/images/mapicons/transport_airport2.p.20.png"},{"place_id":235785169,"licence":"Data © OpenStreetMap contributors, ODbL 1.0. https://osm.org/copyright","osm_type":"relation","osm_id":4032022,"boundingbox":["29.3650565","29.3679831","-98.6313646","-98.6211292"],"lat":"29.36665215","lon":"-98.62921699085138","display_name":"Lackland Heights, San Antonio, Bexar County, Texas, United States of America","class":"landuse","type":"residential","importance":0.29999999999999993},{"place_id":408923,"licence":"Data © OpenStreetMap contributors, ODbL 1.0. https://osm.org/copyright","osm_type":"node","osm_id":151900340,"boundingbox":["29.4101121","29.4102121","-98.638081","-98.637981"],"lat":"29.4101621","lon":"-98.638031","display_name":"Lackland Terrace, San Antonio, Bexar County, Texas, 78227, United States of America","class":"place","type":"neighbourhood","importance":0.29999999999999993},{"place_id":235759631,"licence":"Data © OpenStreetMap contributors, ODbL 1.0. https://osm.org/copyright","osm_type":"relation","osm_id":4252199,"boundingbox":["29.346207","29.3932565","-98.6902956","-98.643565"],"lat":"29.36977315","lon":"-98.66464016066327","display_name":"Lackland Training Annex, Bexar County, Texas, United States of America","class":"landuse","type":"military","importance":0.29999999999999993},{"place_id":103892344,"licence":"Data © OpenStreetMap contributors, ODbL 1.0. https://osm.org/copyright","osm_type":"way","osm_id":81050068,"boundingbox":["29.4104232","29.4116838","-98.6446472","-98.6414404"],"lat":"29.41114615","lon":"-98.6433151246122","display_name":"Lackland Terrace Park, Lackland Terrace, San Antonio, Bexar County, Texas, United States of America","class":"leisure","type":"park","importance":0.25},{"place_id":209068557,"licence":"Data © OpenStreetMap contributors, ODbL 1.0. https://osm.org/copyright","osm_type":"way","osm_id":601934712,"boundingbox":["32.721427","32.721573","-97.434235","-97.434198"],"lat":"32.721427","lon":"-97.434198","display_name":"Lackland Road, Fort Worth, Tarrant County, Texas, 76116, United States of America","class":"highway","type":"tertiary","importance":0.19999999999999998},{"place_id":197128987,"licence":"Data © OpenStreetMap contributors, ODbL 1.0. https://osm.org/copyright","osm_type":"way","osm_id":509286602,"boundingbox":["31.762543","31.7686547","-106.2259966","-106.2259376"],"lat":"31.7655169","lon":"-106.2259671","display_name":"Thomas Lackland Street, El Paso, El Paso County, Texas, 79938, United States of America","class":"highway","type":"residential","importance":0.19999999999999998},{"place_id":87887600,"licence":"Data © OpenStreetMap contributors, ODbL 1.0. https://osm.org/copyright","osm_type":"way","osm_id":17342447,"boundingbox":["31.8257635","31.8347055","-106.4482581","-106.4480437"],"lat":"31.8302297","lon":"-106.4481475","display_name":"Lackland Street, Planeport, El Paso, El Paso County, Texas, 79920, United States of America","class":"highway","type":"residential","importance":0.19999999999999998}]