[{"place_id":35238450,"licence":"Data © OpenStreetMap contributors, ODbL 1.0. https://osm.org/copyright","osm_type":"node","osm_id":2872238032,"boundingbox":["2.7540567","3.0740567","101.5238531","101.8438531"],"lat":"2.9140567","lon":"101.6838531","display_name":"Putrajaya, 62100, Malaysia","class":"place","type":"city","importance":0.8335401560586552,"icon":"https://nominatim.openstreetmap.org/ui/mapicons//poi_place_city.p.20.png"},{"place_id":297867990,"licence":"Data © OpenStreetMap contributors, ODbL 1.0. https://osm.org/copyright","osm_type":"relation","osm_id":4443881,"boundingbox":["2.8768326","2.9831441","101.6596875","101.7326821"],"lat":"2.9384381","lon":"101.69223","display_name":"Putrajaya, Malaysia","class":"boundary","type":"administrative","importance":0.8335401560586552,"icon":"https://nominatim.openstreetmap.org/ui/mapicons//poi_boundary_administrative.p.20.png"},{"place_id":83072863,"licence":"Data © OpenStreetMap contributors, ODbL 1.0. https://osm.org/copyright","osm_type":"node","osm_id":7820444845,"boundingbox":["2.9265274","2.9365274","101.6654006","101.6754006"],"lat":"2.9315274","lon":"101.6704006","display_name":"ERL Putrajaya/Cyberjaya, Jalan P7 B, Presint 7, Putrajaya, 62250, Malaysia","class":"railway","type":"station","importance":0.6841293271709881,"icon":"https://nominatim.openstreetmap.org/ui/mapicons//transport_train_station2.p.20.png"},{"place_id":61194099,"licence":"Data © OpenStreetMap contributors, ODbL 1.0. https://osm.org/copyright","osm_type":"node","osm_id":5483343916,"boundingbox":["2.9313356","2.9314356","101.6707183","101.6708183"],"lat":"2.9313856","lon":"101.6707683","display_name":"ERL Putrajaya/Cyberjaya, Jalan P7 B, Presint 7, Putrajaya, 62250, Malaysia","class":"railway","type":"stop","importance":0.6841293271709881},{"place_id":97252900,"licence":"Data © OpenStreetMap contributors, ODbL 1.0. https://osm.org/copyright","osm_type":"way","osm_id":30859202,"boundingbox":["2.9232697","2.9436954","101.6063247","101.6319959"],"lat":"2.9283664","lon":"101.6221032","display_name":"Lebuhraya Utara–Selatan Hubungan Tengah (Hubungan Putrajaya), Cyber 2, Bandar Nusaputra, Cyberjaya, Sepang, Selangor, 47130, Malaysia","class":"highway","type":"motorway","importance":0.6389652785939945},{"place_id":216646662,"licence":"Data © OpenStreetMap contributors, ODbL 1.0. https://osm.org/copyright","osm_type":"way","osm_id":609112039,"boundingbox":["2.9298774","2.9306361","101.6237544","101.6250657"],"lat":"2.9300347","lon":"101.6243979","display_name":"Lebuhraya Utara–Selatan Hubungan Tengah (Hubungan Putrajaya), Bandar Nusaputra, Sepang, Selangor, 47130, Malaysia","class":"highway","type":"motorway_link","importance":0.6389652785939945},{"place_id":237719456,"licence":"Data © OpenStreetMap contributors, ODbL 1.0. https://osm.org/copyright","osm_type":"way","osm_id":757079928,"boundingbox":["2.9227928","2.9232697","101.6045264","101.6063247"],"lat":"2.9232697","lon":"101.6063247","display_name":"Lebuhraya Utara–Selatan Hubungan Tengah (Hubungan Putrajaya), Sepang, Kuala Langat, Selangor, 47130, Malaysia","class":"highway","type":"motorway_link","importance":0.6389652785939945},{"place_id":97380886,"licence":"Data © OpenStreetMap contributors, ODbL 1.0. https://osm.org/copyright","osm_type":"way","osm_id":27127203,"boundingbox":["3.1734647","3.1753372","101.6952968","101.6981365"],"lat":"3.1743753000000003","lon":"101.69670992112341","display_name":"MRT Putrajaya Line, construction site at Titiwangsa (former Perumahan Tunku Abdul Rahman), Sentul, Kuala Lumpur, Malaysia","class":"landuse","type":"construction","importance":0.6099999999999999},{"place_id":297846713,"licence":"Data © OpenStreetMap contributors, ODbL 1.0. https://osm.org/copyright","osm_type":"way","osm_id":888188142,"boundingbox":["2.8921999","2.896565","101.6742596","101.6797968"],"lat":"2.8944611499999997","lon":"101.67713141642514","display_name":"Putrajaya International Convention Centre, Jambatan Seri Gemilang, Presint 5, Putrajaya, 62100, Malaysia","class":"amenity","type":"conference_centre","importance":0.5915966805698039},{"place_id":187614557,"licence":"Data © OpenStreetMap contributors, ODbL 1.0. https://osm.org/copyright","osm_type":"way","osm_id":424862122,"boundingbox":["2.9277271","2.9311848","101.6724574","101.6764211"],"lat":"2.9293937999999997","lon":"101.67431369349812","display_name":"Hospital Putrajaya, Lebuh Sentosa, Putrajaya, 62250, Malaysia","class":"amenity","type":"hospital","importance":0.5869134868042601,"icon":"https://nominatim.openstreetmap.org/ui/mapicons//health_hospital.p.20.png"}]